$GPRMC,185532,A,04025.7366,N,08653.9941,W,556.000,18
$GPRMC,185542,A,04025.7368,N,08653.9961,W,000.849,36
$GPRMC,185543,A,04025.7368,N,08653.9961,W,000.849,54
$GPRMC,185544,A,04025.7368,N,08653.9971,W,000.849,72
$GPRMC,185545,A,04025.7371,N,08653.9971,W,000.849,90
$GPRMC,185546,A,04025.7371,N,08653.9971,W,000.849,108
$GPRMC,185547,A,04025.7371,N,08653.9980,W,000.849,126
$GPRMC,185548,A,04025.7371,N,08653.9980,W,000.849,144
$GPRMC,185549,A,04025.7371,N,08653.9980,W,000.768,162
$GPRMC,185550,A,04025.7371,N,08653.9990,W,000.695,180
$GPRMC,185551,A,04025.7371,N,08653.9990,W,000.629,198
$GPRMC,185825,A,04025.7788,N,08654.1387,W,000.945,216
$GPRMC,185826,A,04025.7793,N,08654.1367,W,000.567,234
$GPRMC,185827,A,04025.7791,N,08654.1367,W,000.569,252
$GPRMC,185828,A,04025.7791,N,08654.1367,W,001.055,270
$GPRMC,185829,A,04025.7783,N,08654.1367,W,002.118,288
$GPRMC,185830,A,04025.7778,N,08654.1367,W,001.746,306
$GPRMC,185831,A,04025.7776,N,08654.1367,W,001.649,324
$GPRMC,185832,A,04025.7773,N,08654.1377,W,001.644,342
$GPRMC,185833,A,04025.7773,N,08654.1387,W,001.737,360
$GPRMC,185834,A,04025.7771,N,08654.1387,W,001.881,378
$GPRMC,185835,A,04025.7771,N,08654.1396,W,002.063,396
$GPRMC,185836,A,04025.7458,N,08654.0449,W,019.208,414
$GPRMC,185837,A,04025.7454,N,08654.0449,W,012.065,432
$GPRMC,185838,A,04025.7429,N,08654.0430,W,011.771,450
$GPRMC,185839,A,04025.7480,N,08654.0459,W,004.689,468
$GPRMC,185840,A,04025.7480,N,08654.0449,W,002.926,486
$GPRMC,185841,A,04025.7480,N,08654.0439,W,002.070,504
$GPRMC,185842,A,04025.7507,N,08654.0439,W,000.567,522
$GPRMC,185843,A,04025.7507,N,08654.0439,W,000.386,540
$GPRMC,185844,A,04025.7510,N,08654.0439,W,000.513,558
$GPRMC,185845,A,04025.7507,N,08654.0439,W,000.310,576
$GPRMC,185846,A,04025.7507,N,08654.0439,W,000.513,594
$GPRMC,185847,A,04025.7502,N,08654.0439,W,000.926,612
$GPRMC,185848,A,04025.7502,N,08654.0439,W,000.000,630
$GPRMC,185849,A,04025.7502,N,08654.0439,W,000.000,648
$GPRMC,185850,A,04025.7502,N,08654.0439,W,000.000,666
$GPRMC,185851,A,04025.7502,N,08654.0439,W,000.000,684
$GPRMC,185852,A,04025.7500,N,08654.0430,W,000.528,702
$GPRMC,185853,A,04025.7500,N,08654.0430,W,000.528,720
$GPRMC,185854,A,04025.7498,N,08654.0420,W,000.922,738
$GPRMC,185855,A,04025.7498,N,08654.0410,W,000.922,756
$GPRMC,185856,A,04025.7495,N,08654.0410,W,000.922,774
$GPRMC,185857,A,04025.7495,N,08654.0400,W,000.922,792
$GPRMC,185858,A,04025.7500,N,08654.0400,W,001.533,810
$GPRMC,185859,A,04025.7502,N,08654.0391,W,001.748,828
$GPRMC,185900,A,04025.7515,N,08654.0420,W,001.341,846
$GPRMC,185901,A,04025.7520,N,08654.0420,W,001.692,864
$GPRMC,185902,A,04025.7524,N,08654.0420,W,001.692,882
$GPRMC,185903,A,04025.7529,N,08654.0410,W,001.692,900
$GPRMC,185904,A,04025.7534,N,08654.0410,W,001.692,918
$GPRMC,185905,A,04025.7539,N,08654.0410,W,001.692,936
$GPRMC,185906,A,04025.7539,N,08654.0400,W,001.692,954
$GPRMC,185907,A,04025.7556,N,08654.0391,W,002.941,972
$GPRMC,185908,A,04025.7371,N,08654.0479,W,002.749,990
$GPRMC,185909,A,04025.7363,N,08654.0479,W,002.902,1008
$GPRMC,185910,A,04025.7356,N,08654.0479,W,003.092,1026
$GPRMC,185911,A,04025.7349,N,08654.0488,W,003.248,1044
$GPRMC,185912,A,04025.7234,N,08654.0293,W,006.847,1062
$GPRMC,185913,A,04025.7266,N,08654.0273,W,005.419,1080
$GPRMC,185914,A,04025.7246,N,08654.0254,W,005.955,1098
$GPRMC,185915,A,04025.7229,N,08654.0244,W,006.165,1116
$GPRMC,185916,A,04025.7324,N,08654.0371,W,002.905,1134
$GPRMC,185917,A,04025.7319,N,08654.0371,W,001.740,1152
$GPRMC,185918,A,04025.7322,N,08654.0381,W,001.780,1170
$GPRMC,185919,A,04025.7319,N,08654.0381,W,001.780,1188
$GPRMC,185920,A,04025.7319,N,08654.0391,W,001.780,1206
$GPRMC,185921,A,04025.7319,N,08654.0391,W,001.780,1224
$GPRMC,185922,A,04025.7314,N,08654.0400,W,002.011,1242
$GPRMC,185923,A,04025.7329,N,08654.0391,W,000.872,1260
$GPRMC,185924,A,04025.7332,N,08654.0391,W,000.514,1278
$GPRMC,185925,A,04025.7354,N,08654.0391,W,001.225,1296
$GPRMC,185926,A,04025.7351,N,08654.0400,W,001.459,1314
$GPRMC,185927,A,04025.7354,N,08654.0400,W,001.311,1332
$GPRMC,185928,A,04025.7354,N,08654.0410,W,001.754,1350
$GPRMC,185929,A,04025.7354,N,08654.0430,W,002.828,1368
$GPRMC,185930,A,04025.7354,N,08654.0439,W,003.353,1386
$GPRMC,185931,A,04025.7354,N,08654.0449,W,004.099,1404
$GPRMC,185932,A,04025.7356,N,08654.0469,W,004.846,1422
$GPRMC,185933,A,04025.7361,N,08654.0498,W,005.414,1440
$GPRMC,185934,A,04025.7363,N,08654.0508,W,005.512,1458
$GPRMC,185935,A,04025.7368,N,08654.0527,W,005.325,1476
$GPRMC,185936,A,04025.7373,N,08654.0547,W,005.626,1494
$GPRMC,185937,A,04025.7375,N,08654.0576,W,006.034,1512
$GPRMC,185938,A,04025.7373,N,08654.0596,W,006.162,1530
$GPRMC,185939,A,04025.7368,N,08654.0615,W,005.895,1548
$GPRMC,185940,A,04025.7346,N,08654.0654,W,007.803,1566
$GPRMC,185941,A,04025.7327,N,08654.0674,W,007.942,1584
$GPRMC,185942,A,04025.7314,N,08654.0703,W,008.345,1602
$GPRMC,185943,A,04025.7300,N,08654.0732,W,008.345,1620
$GPRMC,185944,A,04025.7285,N,08654.0752,W,008.164,1638
$GPRMC,185945,A,04025.7266,N,08654.0781,W,009.167,1656
$GPRMC,185946,A,04025.7246,N,08654.0811,W,009.167,1674
$GPRMC,185947,A,04025.7236,N,08654.0830,W,008.788,1692
$GPRMC,185948,A,04025.7212,N,08654.0859,W,009.297,1710
$GPRMC,185949,A,04025.7200,N,08654.0889,W,009.266,1728
$GPRMC,185950,A,04025.7185,N,08654.0908,W,009.266,1746
$GPRMC,185951,A,04025.7170,N,08654.0938,W,009.266,1764
$GPRMC,185952,A,04025.7151,N,08654.0967,W,009.266,1782
$GPRMC,185953,A,04025.7136,N,08654.0986,W,008.854,1800
$GPRMC,185954,A,04025.7126,N,08654.0996,W,008.108,1818
$GPRMC,185955,A,04025.7109,N,08654.1025,W,008.014,1836
$GPRMC,185956,A,04025.7019,N,08654.0938,W,007.426,1854
$GPRMC,185957,A,04025.6990,N,08654.0928,W,006.019,1872
$GPRMC,185958,A,04025.6987,N,08654.0938,W,004.299,1890
$GPRMC,185959,A,04025.6978,N,08654.0928,W,003.318,1908
$GPRMC,190000,A,04025.6973,N,08654.0928,W,002.540,1926
$GPRMC,190001,A,04025.6965,N,08654.0918,W,002.274,1944
$GPRMC,190002,A,04025.6958,N,08654.0918,W,002.012,1962
$GPRMC,190003,A,04025.6956,N,08654.0918,W,001.726,1980
$GPRMC,190004,A,04025.6953,N,08654.0928,W,001.783,1998
$GPRMC,190005,A,04025.6953,N,08654.0928,W,001.049,2016
$GPRMC,190006,A,04025.6951,N,08654.0928,W,000.912,2034
$GPRMC,190007,A,04025.6948,N,08654.0928,W,000.759,2052
$GPRMC,190008,A,04025.6946,N,08654.0928,W,000.452,2070
$GPRMC,190009,A,04025.6946,N,08654.0928,W,000.338,2088
$GPRMC,190010,A,04025.6946,N,08654.0928,W,000.578,2106
$GPRMC,190011,A,04025.6948,N,08654.0928,W,001.103,2124
$GPRMC,190012,A,04025.6951,N,08654.0938,W,001.827,2142
$GPRMC,190013,A,04025.6951,N,08654.0947,W,003.152,2160
$GPRMC,190014,A,04025.6956,N,08654.0967,W,004.634,2178
$GPRMC,190015,A,04025.6956,N,08654.0996,W,006.533,2196
$GPRMC,190016,A,04025.6953,N,08654.1016,W,007.252,2214
$GPRMC,190017,A,04025.6953,N,08654.1055,W,007.541,2232
$GPRMC,190018,A,04025.6929,N,08654.1074,W,008.935,2250
$GPRMC,190019,A,04025.6895,N,08654.1094,W,010.832,2268
$GPRMC,190020,A,04025.6860,N,08654.1113,W,011.807,2286
$GPRMC,190021,A,04025.6829,N,08654.1133,W,012.300,2304
$GPRMC,190022,A,04025.6797,N,08654.1143,W,012.485,2322
$GPRMC,190023,A,04025.6765,N,08654.1172,W,012.485,2340
$GPRMC,190024,A,04025.6733,N,08654.1182,W,012.485,2358
$GPRMC,190025,A,04025.6697,N,08654.1221,W,013.094,2376
$GPRMC,190026,A,04025.6685,N,08654.1240,W,010.422,2394
$GPRMC,190027,A,04025.6682,N,08654.1309,W,011.187,2412
$GPRMC,190028,A,04025.6665,N,08654.1348,W,011.955,2430
$GPRMC,190029,A,04025.6665,N,08654.1406,W,012.920,2448
$GPRMC,190030,A,04025.6660,N,08654.1455,W,013.219,2466
$GPRMC,190031,A,04025.6658,N,08654.1504,W,012.836,2484
$GPRMC,190032,A,04025.6650,N,08654.1553,W,012.836,2502
$GPRMC,190033,A,04025.6641,N,08654.1602,W,012.836,2520
$GPRMC,190034,A,04025.6633,N,08654.1650,W,013.187,2538
$GPRMC,190035,A,04025.6624,N,08654.1699,W,013.187,2556
$GPRMC,190036,A,04025.6621,N,08654.1748,W,013.187,2574
$GPRMC,190037,A,04025.6621,N,08654.1797,W,013.340,2592
$GPRMC,190038,A,04025.6614,N,08654.1846,W,013.340,2610
$GPRMC,190039,A,04025.6604,N,08654.1895,W,013.340,2628
$GPRMC,190040,A,04025.6602,N,08654.1963,W,014.037,2646
$GPRMC,190041,A,04025.6594,N,08654.2012,W,014.037,2664
$GPRMC,190042,A,04025.6587,N,08654.2070,W,014.037,2682
$GPRMC,190043,A,04025.6582,N,08654.2119,W,014.037,2700
$GPRMC,190044,A,04025.6626,N,08654.1963,W,007.954,2718
$GPRMC,190045,A,04025.6602,N,08654.1992,W,008.361,2736
$GPRMC,190046,A,04025.6582,N,08654.1992,W,008.472,2754
$GPRMC,190047,A,04025.6667,N,08654.2031,W,008.650,2772
$GPRMC,190048,A,04025.6660,N,08654.2070,W,008.573,2790
$GPRMC,190049,A,04025.6658,N,08654.2090,W,008.618,2808
$GPRMC,190050,A,04025.6660,N,08654.2119,W,007.730,2826
$GPRMC,190051,A,04025.6660,N,08654.2148,W,006.930,2844
$GPRMC,190052,A,04025.6660,N,08654.2168,W,006.778,2862
$GPRMC,190053,A,04025.6660,N,08654.2197,W,006.650,2880
$GPRMC,190054,A,04025.6665,N,08654.2227,W,007.587,2898
$GPRMC,190055,A,04025.6667,N,08654.2256,W,008.113,2916
$GPRMC,190056,A,04025.6663,N,08654.2285,W,008.772,2934
$GPRMC,190057,A,04025.6665,N,08654.2314,W,009.108,2952
$GPRMC,190058,A,04025.6665,N,08654.2354,W,009.113,2970
$GPRMC,190059,A,04025.6667,N,08654.2383,W,009.095,2988
$GPRMC,190100,A,04025.6670,N,08654.2422,W,009.095,3006
$GPRMC,190101,A,04025.6672,N,08654.2451,W,009.095,3024
$GPRMC,190102,A,04025.6675,N,08654.2490,W,009.095,3042
$GPRMC,190103,A,04025.6675,N,08654.2520,W,009.095,3060
$GPRMC,190104,A,04025.6677,N,08654.2549,W,008.871,3078
$GPRMC,190105,A,04025.6680,N,08654.2578,W,008.871,3096
$GPRMC,190106,A,04025.6680,N,08654.2617,W,008.871,3114
$GPRMC,190107,A,04025.6682,N,08654.2646,W,008.871,3132
$GPRMC,190108,A,04025.6685,N,08654.2676,W,008.871,3150
$GPRMC,190109,A,04025.6687,N,08654.2715,W,008.871,3168
$GPRMC,190110,A,04025.6682,N,08654.2744,W,008.871,3186
$GPRMC,190111,A,04025.6680,N,08654.2754,W,008.494,3204
$GPRMC,190112,A,04025.6667,N,08654.2783,W,008.151,3222
$GPRMC,190113,A,04025.6667,N,08654.2813,W,008.122,3240
$GPRMC,190114,A,04025.6665,N,08654.2832,W,007.966,3258
$GPRMC,190115,A,04025.6665,N,08654.2861,W,008.043,3276
$GPRMC,190116,A,04025.6665,N,08654.2891,W,007.907,3294
$GPRMC,190117,A,04025.6672,N,08654.2920,W,008.134,3312
$GPRMC,190118,A,04025.6670,N,08654.2949,W,008.237,3330
$GPRMC,190119,A,04025.6672,N,08654.2979,W,008.220,3348
$GPRMC,190120,A,04025.6667,N,08654.3008,W,008.018,3366
$GPRMC,190121,A,04025.6667,N,08654.3027,W,008.077,3384
$GPRMC,190122,A,04025.6665,N,08654.3066,W,008.066,3402
$GPRMC,190123,A,04025.6665,N,08654.3096,W,007.811,3420
$GPRMC,190124,A,04025.6665,N,08654.3125,W,007.979,3438
$GPRMC,190125,A,04025.6670,N,08654.3154,W,008.330,3456
$GPRMC,190126,A,04025.6670,N,08654.3174,W,007.951,3474
$GPRMC,190127,A,04025.6670,N,08654.3213,W,007.666,3492
$GPRMC,190128,A,04025.6672,N,08654.3242,W,007.716,3510
$GPRMC,190129,A,04025.6675,N,08654.3262,W,008.162,3528
$GPRMC,190130,A,04025.6675,N,08654.3291,W,008.162,3546
$GPRMC,190131,A,04025.6677,N,08654.3330,W,008.162,3564
$GPRMC,190132,A,04025.6680,N,08654.3359,W,008.162,3582
$GPRMC,190133,A,04025.6680,N,08654.3359,W,006.783,3600
$GPRMC,190134,A,04025.6677,N,08654.3389,W,006.630,3618
$GPRMC,190135,A,04025.6680,N,08654.3408,W,006.725,3636
$GPRMC,190136,A,04025.6660,N,08654.3438,W,006.871,3654
$GPRMC,190137,A,04025.6658,N,08654.3457,W,006.871,3672
$GPRMC,190138,A,04025.6650,N,08654.3486,W,006.979,3690
$GPRMC,190139,A,04025.6646,N,08654.3516,W,006.989,3708
$GPRMC,190140,A,04025.6641,N,08654.3535,W,006.989,3726
$GPRMC,190141,A,04025.6638,N,08654.3564,W,007.016,3744
$GPRMC,190142,A,04025.6633,N,08654.3594,W,007.093,3762
$GPRMC,190143,A,04025.6633,N,08654.3623,W,007.441,3780
$GPRMC,190144,A,04025.6631,N,08654.3652,W,007.441,3798
$GPRMC,190145,A,04025.6626,N,08654.3682,W,007.441,3816
$GPRMC,190146,A,04025.6624,N,08654.3711,W,007.441,3834
$GPRMC,190147,A,04025.6621,N,08654.3740,W,007.441,3852
$GPRMC,190148,A,04025.6619,N,08654.3760,W,007.441,3870
$GPRMC,190149,A,04025.6628,N,08654.3779,W,006.708,3888
$GPRMC,190150,A,04025.6611,N,08654.3682,W,004.175,3906
$GPRMC,190151,A,04025.6619,N,08654.3691,W,004.977,3924
$GPRMC,190152,A,04025.6680,N,08654.3701,W,004.902,3942
$GPRMC,190153,A,04025.6667,N,08654.3721,W,006.627,3960
$GPRMC,190154,A,04025.6658,N,08654.3750,W,007.056,3978
$GPRMC,190155,A,04025.6614,N,08654.3750,W,008.550,3996
$GPRMC,190156,A,04025.6587,N,08654.3760,W,009.079,4014
$GPRMC,190157,A,04025.6563,N,08654.3770,W,009.133,4032
$GPRMC,190158,A,04025.6543,N,08654.3789,W,009.105,4050
$GPRMC,190159,A,04025.6516,N,08654.3799,W,009.668,4068
$GPRMC,190200,A,04025.6492,N,08654.3818,W,009.668,4086
$GPRMC,190201,A,04025.6514,N,08654.3818,W,005.610,4104
$GPRMC,190202,A,04025.6511,N,08654.3838,W,005.610,4122
$GPRMC,190203,A,04025.6509,N,08654.3857,W,005.610,4140
$GPRMC,190204,A,04025.6519,N,08654.3936,W,008.794,4158
$GPRMC,190205,A,04025.6526,N,08654.3955,W,008.671,4176
$GPRMC,190206,A,04025.6541,N,08654.3984,W,009.088,4194
$GPRMC,190207,A,04025.6545,N,08654.4023,W,009.209,4212
$GPRMC,190208,A,04025.6550,N,08654.4053,W,008.599,4230
$GPRMC,190209,A,04025.6550,N,08654.4082,W,008.372,4248
$GPRMC,190210,A,04025.6558,N,08654.4111,W,008.490,4266
$GPRMC,190211,A,04025.6560,N,08654.4150,W,008.557,4284
$GPRMC,190212,A,04025.6560,N,08654.4180,W,008.734,4302
$GPRMC,190213,A,04025.6563,N,08654.4209,W,008.734,4320
$GPRMC,190214,A,04025.6577,N,08654.4238,W,008.679,4338
$GPRMC,190215,A,04025.6587,N,08654.4248,W,008.145,4356
$GPRMC,190216,A,04025.6587,N,08654.4277,W,008.028,4374
$GPRMC,190217,A,04025.6584,N,08654.4307,W,007.955,4392
$GPRMC,190218,A,04025.6592,N,08654.4336,W,007.443,4410
$GPRMC,190219,A,04025.6594,N,08654.4355,W,007.250,4428
$GPRMC,190220,A,04025.6599,N,08654.4385,W,007.204,4446
$GPRMC,190221,A,04025.6602,N,08654.4414,W,007.525,4464
$GPRMC,190222,A,04025.6604,N,08654.4434,W,007.837,4482
$GPRMC,190223,A,04025.6604,N,08654.4463,W,007.292,4500
$GPRMC,190224,A,04025.6609,N,08654.4482,W,007.226,4518
$GPRMC,190225,A,04025.6606,N,08654.4512,W,007.285,4536
$GPRMC,190226,A,04025.6606,N,08654.4541,W,007.371,4554
$GPRMC,190227,A,04025.6604,N,08654.4570,W,007.430,4572
$GPRMC,190228,A,04025.6609,N,08654.4590,W,007.659,4590
$GPRMC,190229,A,04025.6609,N,08654.4619,W,007.784,4608
$GPRMC,190230,A,04025.6614,N,08654.4639,W,006.829,4626
$GPRMC,190231,A,04025.6602,N,08654.4668,W,006.691,4644
$GPRMC,190232,A,04025.6611,N,08654.4697,W,006.878,4662
$GPRMC,190233,A,04025.6606,N,08654.4717,W,007.230,4680
$GPRMC,190234,A,04025.6604,N,08654.4746,W,007.164,4698
$GPRMC,190235,A,04025.6602,N,08654.4775,W,007.248,4716
$GPRMC,190236,A,04025.6602,N,08654.4805,W,007.295,4734
$GPRMC,190237,A,04025.6602,N,08654.4834,W,007.387,4752
$GPRMC,190238,A,04025.6597,N,08654.4854,W,007.374,4770
$GPRMC,190239,A,04025.6594,N,08654.4883,W,006.992,4788
$GPRMC,190240,A,04025.6594,N,08654.4912,W,006.951,4806
$GPRMC,190241,A,04025.6597,N,08654.4932,W,006.979,4824
$GPRMC,190242,A,04025.6592,N,08654.4961,W,007.040,4842
$GPRMC,190243,A,04025.6592,N,08654.4980,W,007.317,4860
$GPRMC,190244,A,04025.6592,N,08654.5010,W,007.478,4878
$GPRMC,190245,A,04025.6589,N,08654.5039,W,007.538,4896
$GPRMC,190246,A,04025.6589,N,08654.5068,W,007.832,4914
$GPRMC,190247,A,04025.6594,N,08654.5088,W,007.825,4932
$GPRMC,190248,A,04025.6594,N,08654.5127,W,008.273,4950
$GPRMC,190249,A,04025.6599,N,08654.5156,W,008.715,4968
$GPRMC,190250,A,04025.6602,N,08654.5186,W,009.030,4986
$GPRMC,190251,A,04025.6604,N,08654.5215,W,009.083,5004
$GPRMC,190252,A,04025.6604,N,08654.5254,W,008.988,5022
$GPRMC,190253,A,04025.6589,N,08654.5293,W,009.207,5040
$GPRMC,190254,A,04025.6589,N,08654.5322,W,009.422,5058
$GPRMC,190255,A,04025.6587,N,08654.5361,W,009.186,5076
$GPRMC,190256,A,04025.6587,N,08654.5391,W,009.437,5094
$GPRMC,190257,A,04025.6587,N,08654.5430,W,009.868,5112
$GPRMC,190258,A,04025.6587,N,08654.5469,W,010.010,5130
$GPRMC,190259,A,04025.6587,N,08654.5498,W,010.137,5148
$GPRMC,190300,A,04025.6582,N,08654.5527,W,009.830,5166
$GPRMC,190301,A,04025.6582,N,08654.5566,W,009.982,5184
$GPRMC,190302,A,04025.6587,N,08654.5615,W,010.325,5202
$GPRMC,190303,A,04025.6587,N,08654.5654,W,010.572,5220
$GPRMC,190304,A,04025.6572,N,08654.5703,W,010.857,5238
$GPRMC,190305,A,04025.6570,N,08654.5742,W,010.671,5256
$GPRMC,190306,A,04025.6567,N,08654.5781,W,010.406,5274
$GPRMC,190307,A,04025.6567,N,08654.5811,W,010.491,5292
$GPRMC,190308,A,04025.6567,N,08654.5850,W,010.539,5310
$GPRMC,190309,A,04025.6565,N,08654.5889,W,010.777,5328
$GPRMC,190310,A,04025.6563,N,08654.5938,W,010.777,5346
$GPRMC,190311,A,04025.6563,N,08654.5967,W,010.777,5364
$GPRMC,190312,A,04025.6553,N,08654.6006,W,010.630,5382
$GPRMC,190313,A,04025.6550,N,08654.6045,W,010.630,5400
$GPRMC,190314,A,04025.6545,N,08654.6084,W,010.630,5418
$GPRMC,190315,A,04025.6563,N,08654.6172,W,013.213,5436
$GPRMC,190316,A,04025.6577,N,08654.6221,W,013.388,5454
$GPRMC,190317,A,04025.6626,N,08654.6260,W,014.138,5472
$GPRMC,190318,A,04025.6655,N,08654.6299,W,014.358,5490
$GPRMC,190319,A,04025.6680,N,08654.6338,W,014.500,5508
$GPRMC,190320,A,04025.6702,N,08654.6387,W,014.500,5526
$GPRMC,190321,A,04025.6729,N,08654.6426,W,014.500,5544
$GPRMC,190322,A,04025.6760,N,08654.6465,W,015.221,5562
$GPRMC,190323,A,04025.6787,N,08654.6514,W,015.376,5580
$GPRMC,190324,A,04025.6819,N,08654.6543,W,015.784,5598
$GPRMC,190325,A,04025.6851,N,08654.6582,W,015.399,5616
$GPRMC,190326,A,04025.6880,N,08654.6621,W,015.399,5634
$GPRMC,190327,A,04025.6919,N,08654.6680,W,016.112,5652
$GPRMC,190328,A,04025.6963,N,08654.6611,W,014.088,5670
$GPRMC,190329,A,04025.7004,N,08654.6611,W,014.086,5688
$GPRMC,190330,A,04025.7046,N,08654.6611,W,014.691,5706
$GPRMC,190331,A,04025.7087,N,08654.6611,W,014.515,5724
$GPRMC,190332,A,04025.7126,N,08654.6621,W,014.462,5742
$GPRMC,190333,A,04025.7166,N,08654.6641,W,014.462,5760
$GPRMC,190334,A,04025.7195,N,08654.6631,W,013.650,5778
$GPRMC,190335,A,04025.7227,N,08654.6631,W,012.727,5796
$GPRMC,190336,A,04025.7263,N,08654.6641,W,012.727,5814
$GPRMC,190337,A,04025.7288,N,08654.6660,W,011.970,5832
$GPRMC,190338,A,04025.7324,N,08654.6650,W,011.972,5850
$GPRMC,190339,A,04025.7356,N,08654.6650,W,011.970,5868
$GPRMC,190340,A,04025.7390,N,08654.6650,W,012.176,5886
$GPRMC,190341,A,04025.7424,N,08654.6650,W,012.176,5904
$GPRMC,190342,A,04025.7456,N,08654.6650,W,011.891,5922
$GPRMC,190343,A,04025.7488,N,08654.6650,W,011.903,5940
$GPRMC,190344,A,04025.7520,N,08654.6641,W,011.903,5958
$GPRMC,190345,A,04025.7556,N,08654.6650,W,011.704,5976
$GPRMC,190346,A,04025.7588,N,08654.6650,W,011.704,5994
$GPRMC,190347,A,04025.7617,N,08654.6650,W,011.670,6012
$GPRMC,190348,A,04025.7649,N,08654.6641,W,011.670,6030
$GPRMC,190349,A,04025.7690,N,08654.6611,W,012.012,6048
$GPRMC,190350,A,04025.7710,N,08654.6621,W,011.430,6066
$GPRMC,190351,A,04025.7734,N,08654.6641,W,010.792,6084
$GPRMC,190352,A,04025.7761,N,08654.6650,W,011.071,6102
$GPRMC,190353,A,04025.7793,N,08654.6650,W,010.647,6120
$GPRMC,190354,A,04025.7822,N,08654.6660,W,010.665,6138
$GPRMC,190355,A,04025.7852,N,08654.6660,W,010.718,6156
$GPRMC,190356,A,04025.7891,N,08654.6650,W,011.385,6174
$GPRMC,190357,A,04025.7917,N,08654.6650,W,010.359,6192
$GPRMC,190358,A,04025.7947,N,08654.6660,W,010.526,6210
$GPRMC,190359,A,04025.7979,N,08654.6660,W,011.081,6228
$GPRMC,190400,A,04025.8008,N,08654.6650,W,010.857,6246
$GPRMC,190401,A,04025.8037,N,08654.6650,W,010.871,6264
$GPRMC,190402,A,04025.8069,N,08654.6660,W,010.871,6282
$GPRMC,190403,A,04025.8096,N,08654.6660,W,010.871,6300
$GPRMC,190404,A,04025.8125,N,08654.6660,W,010.837,6318
$GPRMC,190405,A,04025.8159,N,08654.6660,W,010.904,6336
$GPRMC,190406,A,04025.8179,N,08654.6670,W,010.348,6354
$GPRMC,190407,A,04025.8210,N,08654.6670,W,010.497,6372
$GPRMC,190408,A,04025.8225,N,08654.6641,W,009.739,6390
$GPRMC,190409,A,04025.8252,N,08654.6650,W,009.212,6408
$GPRMC,190410,A,04025.8281,N,08654.6650,W,009.390,6426
$GPRMC,190411,A,04025.8308,N,08654.6650,W,009.404,6444
$GPRMC,190412,A,04025.8335,N,08654.6650,W,009.404,6462
$GPRMC,190413,A,04025.8359,N,08654.6660,W,009.666,6480
$GPRMC,190414,A,04025.8401,N,08654.6660,W,010.136,6498
$GPRMC,190415,A,04025.8425,N,08654.6660,W,010.025,6516
$GPRMC,190416,A,04025.8455,N,08654.6660,W,010.025,6534
$GPRMC,190417,A,04025.8481,N,08654.6660,W,010.025,6552
$GPRMC,190418,A,04025.8503,N,08654.6650,W,009.637,6570
$GPRMC,190419,A,04025.8535,N,08654.6650,W,010.094,6588
$GPRMC,190420,A,04025.8560,N,08654.6650,W,010.073,6606
$GPRMC,190421,A,04025.8594,N,08654.6660,W,010.501,6624
$GPRMC,190422,A,04025.8621,N,08654.6660,W,010.352,6642
$GPRMC,190423,A,04025.8652,N,08654.6660,W,010.342,6660
$GPRMC,190424,A,04025.8679,N,08654.6660,W,010.342,6678
$GPRMC,190425,A,04025.8708,N,08654.6660,W,010.169,6696
$GPRMC,190426,A,04025.8743,N,08654.6660,W,010.787,6714
$GPRMC,190427,A,04025.8772,N,08654.6660,W,010.817,6732
$GPRMC,190428,A,04025.8782,N,08654.6689,W,010.152,6750
$GPRMC,190429,A,04025.8811,N,08654.6689,W,010.251,6768
$GPRMC,190430,A,04025.8840,N,08654.6689,W,010.324,6786
$GPRMC,190431,A,04025.8870,N,08654.6689,W,010.615,6804
$GPRMC,190432,A,04025.8899,N,08654.6689,W,010.680,6822
$GPRMC,190433,A,04025.8931,N,08654.6689,W,010.715,6840
$GPRMC,190434,A,04025.8962,N,08654.6689,W,010.935,6858
$GPRMC,190435,A,04025.8992,N,08654.6689,W,010.967,6876
$GPRMC,190436,A,04025.9023,N,08654.6689,W,011.076,6894
$GPRMC,190437,A,04025.9053,N,08654.6689,W,011.172,6912
$GPRMC,190438,A,04025.9084,N,08654.6689,W,011.172,6930
$GPRMC,190439,A,04025.9114,N,08654.6689,W,011.172,6948
$GPRMC,190440,A,04025.9148,N,08654.6689,W,011.172,6966
$GPRMC,190441,A,04025.9180,N,08654.6689,W,011.172,6984
$GPRMC,190442,A,04025.9209,N,08654.6689,W,011.187,7002
$GPRMC,190443,A,04025.9241,N,08654.6689,W,011.187,7020
$GPRMC,190444,A,04025.9270,N,08654.6689,W,011.187,7038
$GPRMC,190445,A,04025.9282,N,08654.6689,W,009.996,7056
$GPRMC,190446,A,04025.9314,N,08654.6689,W,010.110,7074
$GPRMC,190447,A,04025.9341,N,08654.6689,W,009.937,7092
$GPRMC,190448,A,04025.9365,N,08654.6699,W,010.121,7110
$GPRMC,190449,A,04025.9395,N,08654.6699,W,010.121,7128
$GPRMC,190450,A,04025.9421,N,08654.6699,W,010.121,7146
$GPRMC,190451,A,04025.9453,N,08654.6699,W,010.177,7164
$GPRMC,190452,A,04025.9490,N,08654.6699,W,010.514,7182
$GPRMC,190453,A,04025.9517,N,08654.6709,W,010.533,7200
$GPRMC,190454,A,04025.9548,N,08654.6709,W,010.533,7218
$GPRMC,190455,A,04025.9578,N,08654.6709,W,010.533,7236
$GPRMC,190456,A,04025.9602,N,08654.6719,W,010.434,7254
$GPRMC,190457,A,04025.9614,N,08654.6680,W,009.737,7272
$GPRMC,190458,A,04025.9641,N,08654.6680,W,009.737,7290
$GPRMC,190459,A,04025.9663,N,08654.6670,W,009.607,7308
$GPRMC,190500,A,04025.9690,N,08654.6670,W,009.607,7326
$GPRMC,190501,A,04025.9714,N,08654.6660,W,009.607,7344
$GPRMC,190502,A,04025.9739,N,08654.6660,W,009.598,7362
$GPRMC,190503,A,04025.9751,N,08654.6533,W,009.686,7380
$GPRMC,190504,A,04025.9775,N,08654.6523,W,009.686,7398
$GPRMC,190505,A,04025.9805,N,08654.6514,W,009.792,7416
$GPRMC,190506,A,04025.9829,N,08654.6504,W,009.792,7434
$GPRMC,190507,A,04025.9854,N,08654.6494,W,009.792,7452
$GPRMC,190508,A,04025.9910,N,08654.6475,W,011.972,7470
$GPRMC,190509,A,04026.0024,N,08654.6768,W,012.759,7488
$GPRMC,190510,A,04026.0063,N,08654.6768,W,012.923,7506
$GPRMC,190511,A,04026.0098,N,08654.6768,W,012.864,7524
$GPRMC,190512,A,04026.0132,N,08654.6768,W,012.801,7542
$GPRMC,190513,A,04026.0168,N,08654.6768,W,012.792,7560
$GPRMC,190514,A,04026.0203,N,08654.6768,W,012.792,7578
$GPRMC,190515,A,04026.0239,N,08654.6768,W,012.796,7596
$GPRMC,190516,A,04026.0261,N,08654.6768,W,011.907,7614
$GPRMC,190517,A,04026.0298,N,08654.6768,W,012.357,7632
$GPRMC,190518,A,04026.0334,N,08654.6768,W,012.210,7650
$GPRMC,190519,A,04026.0369,N,08654.6768,W,012.470,7668
$GPRMC,190520,A,04026.0403,N,08654.6768,W,012.377,7686
$GPRMC,190521,A,04026.0435,N,08654.6777,W,012.331,7704
$GPRMC,190522,A,04026.0471,N,08654.6777,W,012.325,7722
$GPRMC,190523,A,04026.0505,N,08654.6777,W,012.374,7740
$GPRMC,190524,A,04026.0540,N,08654.6777,W,012.374,7758
$GPRMC,190525,A,04026.0574,N,08654.6777,W,012.457,7776
$GPRMC,190526,A,04026.0610,N,08654.6787,W,012.457,7794
$GPRMC,190527,A,04026.0647,N,08654.6787,W,012.569,7812
$GPRMC,190528,A,04026.0674,N,08654.6816,W,011.661,7830
$GPRMC,190529,A,04026.0710,N,08654.6816,W,012.288,7848
$GPRMC,190530,A,04026.0747,N,08654.6816,W,012.367,7866
$GPRMC,190531,A,04026.0781,N,08654.6816,W,012.293,7884
$GPRMC,190532,A,04026.0813,N,08654.6826,W,012.293,7902
$GPRMC,190533,A,04026.0847,N,08654.6826,W,012.293,7920
$GPRMC,190534,A,04026.0876,N,08654.6836,W,011.768,7938
$GPRMC,190535,A,04026.0908,N,08654.6836,W,011.791,7956
$GPRMC,190536,A,04026.0942,N,08654.6846,W,011.678,7974
$GPRMC,190537,A,04026.0972,N,08654.6846,W,011.594,7992
$GPRMC,190538,A,04026.1016,N,08654.6855,W,012.077,8010
$GPRMC,190539,A,04026.1042,N,08654.6865,W,011.763,8028
$GPRMC,190540,A,04026.1077,N,08654.6875,W,011.763,8046
$GPRMC,190541,A,04026.1099,N,08654.6865,W,010.838,8064
$GPRMC,190542,A,04026.1128,N,08654.6865,W,010.838,8082
$GPRMC,190543,A,04026.1160,N,08654.6875,W,010.838,8100
$GPRMC,190544,A,04026.1189,N,08654.6875,W,010.838,8118
$GPRMC,190545,A,04026.1206,N,08654.6885,W,009.661,8136
$GPRMC,190546,A,04026.1240,N,08654.6914,W,009.644,8154
$GPRMC,190547,A,04026.1267,N,08654.6924,W,009.338,8172
$GPRMC,190548,A,04026.1292,N,08654.6934,W,009.043,8190
$GPRMC,190549,A,04026.1299,N,08654.6895,W,008.185,8208
$GPRMC,190550,A,04026.1321,N,08654.6895,W,008.189,8226
$GPRMC,190551,A,04026.1348,N,08654.6904,W,008.410,8244
$GPRMC,190552,A,04026.1357,N,08654.6914,W,007.698,8262
$GPRMC,190553,A,04026.1382,N,08654.6914,W,007.874,8280
$GPRMC,190554,A,04026.1404,N,08654.6924,W,008.020,8298
$GPRMC,190555,A,04026.1426,N,08654.6924,W,008.020,8316
$GPRMC,190556,A,04026.1450,N,08654.6934,W,008.020,8334
$GPRMC,190557,A,04026.1470,N,08654.6943,W,008.020,8352
$GPRMC,190558,A,04026.1492,N,08654.6943,W,008.020,8370
$GPRMC,190559,A,04026.1511,N,08654.6953,W,008.020,8388
$GPRMC,190600,A,04026.1533,N,08654.6963,W,008.020,8406
$GPRMC,190601,A,04026.1558,N,08654.6963,W,008.020,8424
$GPRMC,190602,A,04026.1577,N,08654.6973,W,007.257,8442
$GPRMC,190603,A,04026.1599,N,08654.6973,W,006.566,8460
$GPRMC,190604,A,04026.1621,N,08654.6973,W,006.048,8478
$GPRMC,190605,A,04026.1638,N,08654.6973,W,005.473,8496
$GPRMC,190612,A,04026.1738,N,08654.6738,W,005.624,8514
$GPRMC,190613,A,04026.1726,N,08654.6611,W,006.906,8532
$GPRMC,190614,A,04026.1729,N,08654.6572,W,007.112,8550
$GPRMC,190615,A,04026.1743,N,08654.6553,W,007.112,8568
$GPRMC,190616,A,04026.1758,N,08654.6846,W,004.124,8586
$GPRMC,190617,A,04026.1772,N,08654.6865,W,004.417,8604
$GPRMC,190618,A,04026.1855,N,08654.6836,W,007.551,8622
$GPRMC,190619,A,04026.1873,N,08654.6836,W,007.373,8640
$GPRMC,190620,A,04026.1902,N,08654.6855,W,007.948,8658
$GPRMC,190621,A,04026.1921,N,08654.6865,W,007.604,8676
$GPRMC,190622,A,04026.1941,N,08654.6865,W,007.663,8694
$GPRMC,190623,A,04026.1960,N,08654.6885,W,007.487,8712
$GPRMC,190624,A,04026.1980,N,08654.6885,W,007.493,8730
$GPRMC,190625,A,04026.2007,N,08654.6895,W,007.770,8748
$GPRMC,190626,A,04026.2021,N,08654.6895,W,007.309,8766
$GPRMC,190627,A,04026.2041,N,08654.6895,W,007.281,8784
$GPRMC,190628,A,04026.2058,N,08654.6895,W,007.105,8802
$GPRMC,190629,A,04026.2078,N,08654.6895,W,006.989,8820
$GPRMC,190630,A,04026.2095,N,08654.6895,W,006.724,8838
$GPRMC,190631,A,04026.2117,N,08654.6904,W,006.712,8856
$GPRMC,190632,A,04026.2134,N,08654.6904,W,006.812,8874
$GPRMC,190633,A,04026.2153,N,08654.6904,W,006.812,8892
$GPRMC,190634,A,04026.2170,N,08654.6904,W,006.812,8910
$GPRMC,190635,A,04026.2190,N,08654.6914,W,006.812,8928
$GPRMC,190636,A,04026.2217,N,08654.6904,W,007.221,8946
$GPRMC,190637,A,04026.2234,N,08654.6914,W,007.217,8964
$GPRMC,190638,A,04026.2256,N,08654.6914,W,007.217,8982
$GPRMC,190639,A,04026.2273,N,08654.6914,W,007.217,9000
$GPRMC,190640,A,04026.2295,N,08654.6914,W,007.217,9018
$GPRMC,190641,A,04026.2300,N,08654.6924,W,006.727,9036
$GPRMC,190642,A,04026.2322,N,08654.6924,W,006.707,9054
$GPRMC,190643,A,04026.2339,N,08654.6924,W,006.707,9072
$GPRMC,190644,A,04026.2356,N,08654.6934,W,006.534,9090
$GPRMC,190645,A,04026.2373,N,08654.6953,W,006.358,9108
$GPRMC,190646,A,04026.2393,N,08654.6963,W,006.241,9126
$GPRMC,190647,A,04026.2410,N,08654.6963,W,006.241,9144
$GPRMC,190648,A,04026.2437,N,08654.6953,W,007.064,9162
$GPRMC,190649,A,04026.2454,N,08654.6953,W,006.842,9180
$GPRMC,190650,A,04026.2478,N,08654.6836,W,006.309,9198
$GPRMC,190651,A,04026.2493,N,08654.6836,W,006.008,9216
$GPRMC,190652,A,04026.2512,N,08654.6836,W,006.116,9234
$GPRMC,190653,A,04026.2527,N,08654.6846,W,006.096,9252
$GPRMC,190654,A,04026.2546,N,08654.6846,W,006.042,9270
$GPRMC,190655,A,04026.2563,N,08654.6846,W,006.652,9288
$GPRMC,190656,A,04026.2583,N,08654.6855,W,006.726,9306
$GPRMC,190657,A,04026.2603,N,08654.6846,W,006.769,9324
$GPRMC,190658,A,04026.2627,N,08654.6855,W,006.938,9342
$GPRMC,190659,A,04026.2644,N,08654.6865,W,007.011,9360
$GPRMC,190700,A,04026.2664,N,08654.6865,W,006.967,9378
$GPRMC,190701,A,04026.2683,N,08654.6865,W,006.961,9396
$GPRMC,190702,A,04026.2703,N,08654.6875,W,007.114,9414
$GPRMC,190703,A,04026.2708,N,08654.6895,W,006.897,9432
$GPRMC,190704,A,04026.2695,N,08654.6865,W,005.803,9450
$GPRMC,190705,A,04026.2717,N,08654.6855,W,006.062,9468
$GPRMC,190706,A,04026.2734,N,08654.6855,W,006.063,9486
$GPRMC,190707,A,04026.2764,N,08654.6885,W,006.860,9504
$GPRMC,190708,A,04026.2781,N,08654.6885,W,006.788,9522
$GPRMC,190709,A,04026.2810,N,08654.6885,W,007.487,9540
$GPRMC,190710,A,04026.2827,N,08654.6895,W,007.741,9558
$GPRMC,190711,A,04026.2849,N,08654.6895,W,007.672,9576
$GPRMC,190712,A,04026.2871,N,08654.6895,W,007.797,9594
$GPRMC,190713,A,04026.2893,N,08654.6895,W,007.797,9612
$GPRMC,190714,A,04026.2920,N,08654.6895,W,008.158,9630
$GPRMC,190715,A,04026.2939,N,08654.6885,W,008.011,9648
$GPRMC,190716,A,04026.2959,N,08654.6895,W,007.750,9666
$GPRMC,190717,A,04026.2979,N,08654.6904,W,007.709,9684
$GPRMC,190718,A,04026.3003,N,08654.6904,W,007.793,9702
$GPRMC,190719,A,04026.3030,N,08654.6904,W,007.688,9720
$GPRMC,190720,A,04026.3049,N,08654.6904,W,007.656,9738
$GPRMC,190721,A,04026.3071,N,08654.6904,W,007.697,9756
$GPRMC,190722,A,04026.3093,N,08654.6904,W,007.620,9774
$GPRMC,190723,A,04026.3115,N,08654.6904,W,008.158,9792
$GPRMC,190724,A,04026.3140,N,08654.6904,W,008.158,9810
$GPRMC,190725,A,04026.3159,N,08654.6904,W,007.877,9828
$GPRMC,190726,A,04026.3181,N,08654.6895,W,007.927,9846
$GPRMC,190727,A,04026.3206,N,08654.6895,W,007.927,9864
$GPRMC,190728,A,04026.3218,N,08654.6904,W,007.335,9882
$GPRMC,190729,A,04026.3240,N,08654.6904,W,007.436,9900
$GPRMC,190730,A,04026.3254,N,08654.6904,W,007.024,9918
$GPRMC,190731,A,04026.3289,N,08654.6924,W,007.589,9936
$GPRMC,190732,A,04026.3308,N,08654.6934,W,007.589,9954
$GPRMC,190733,A,04026.3330,N,08654.6934,W,007.459,9972
$GPRMC,190734,A,04026.3350,N,08654.6934,W,007.459,9990
$GPRMC,190735,A,04026.3369,N,08654.6943,W,007.235,10008
$GPRMC,190736,A,04026.3372,N,08654.6914,W,006.617,10026
$GPRMC,190737,A,04026.3394,N,08654.6895,W,006.277,10044
$GPRMC,190738,A,04026.3411,N,08654.6885,W,006.277,10062
$GPRMC,190739,A,04026.3425,N,08654.6885,W,006.757,10080
$GPRMC,190740,A,04026.3445,N,08654.6885,W,006.762,10098
$GPRMC,190741,A,04026.3464,N,08654.6885,W,006.762,10116
$GPRMC,190742,A,04026.3472,N,08654.6865,W,005.619,10134
$GPRMC,190743,A,04026.3496,N,08654.6914,W,005.946,10152
$GPRMC,190744,A,04026.3508,N,08654.6904,W,005.917,10170
$GPRMC,190745,A,04026.3523,N,08654.6875,W,006.047,10188
$GPRMC,190746,A,04026.3542,N,08654.6875,W,006.200,10206
$GPRMC,190747,A,04026.3557,N,08654.6875,W,005.897,10224
$GPRMC,190748,A,04026.3572,N,08654.6865,W,005.802,10242
$GPRMC,190749,A,04026.3586,N,08654.6865,W,005.601,10260
$GPRMC,190750,A,04026.3604,N,08654.6865,W,005.450,10278
$GPRMC,190751,A,04026.3618,N,08654.6865,W,005.453,10296
$GPRMC,190752,A,04026.3633,N,08654.6865,W,005.452,10314
$GPRMC,190753,A,04026.3650,N,08654.6865,W,005.795,10332
$GPRMC,190754,A,04026.3665,N,08654.6865,W,005.795,10350
$GPRMC,190755,A,04026.3677,N,08654.6865,W,005.495,10368
$GPRMC,190756,A,04026.3696,N,08654.6855,W,006.176,10386
$GPRMC,190757,A,04026.3713,N,08654.6855,W,006.176,10404
$GPRMC,190758,A,04026.3730,N,08654.6855,W,006.176,10422
$GPRMC,190759,A,04026.3752,N,08654.6855,W,006.191,10440
$GPRMC,190800,A,04026.3767,N,08654.6846,W,006.191,10458
$GPRMC,190801,A,04026.3784,N,08654.6846,W,006.191,10476
$GPRMC,190802,A,04026.3757,N,08654.6719,W,006.530,10494
$GPRMC,190803,A,04026.3779,N,08654.6885,W,004.368,10512
$GPRMC,190804,A,04026.3821,N,08654.6885,W,005.826,10530
$GPRMC,190805,A,04026.3835,N,08654.6885,W,005.589,10548
$GPRMC,190806,A,04026.3850,N,08654.6885,W,005.700,10566
$GPRMC,190807,A,04026.3867,N,08654.6885,W,005.552,10584
$GPRMC,190808,A,04026.3879,N,08654.6875,W,005.662,10602
$GPRMC,190809,A,04026.3896,N,08654.6885,W,005.852,10620
$GPRMC,190810,A,04026.3916,N,08654.6885,W,005.986,10638
$GPRMC,190811,A,04026.3936,N,08654.6885,W,006.245,10656
$GPRMC,190812,A,04026.3950,N,08654.6875,W,005.892,10674
$GPRMC,190813,A,04026.3967,N,08654.6885,W,006.015,10692
$GPRMC,190814,A,04026.3984,N,08654.6885,W,005.871,10710
$GPRMC,190815,A,04026.3999,N,08654.6885,W,005.703,10728
$GPRMC,190816,A,04026.4011,N,08654.6865,W,005.694,10746
$GPRMC,190817,A,04026.4028,N,08654.6865,W,005.730,10764
$GPRMC,190818,A,04026.4043,N,08654.6865,W,005.502,10782
$GPRMC,190819,A,04026.4058,N,08654.6865,W,005.438,10800
$GPRMC,190820,A,04026.4075,N,08654.6865,W,005.445,10818
$GPRMC,190821,A,04026.4092,N,08654.6865,W,005.533,10836
$GPRMC,190822,A,04026.4106,N,08654.6865,W,005.533,10854
$GPRMC,190823,A,04026.4128,N,08654.6855,W,006.128,10872
$GPRMC,190824,A,04026.4146,N,08654.6865,W,006.193,10890
$GPRMC,190825,A,04026.4163,N,08654.6865,W,006.193,10908
$GPRMC,190826,A,04026.4177,N,08654.6865,W,006.193,10926
$GPRMC,190827,A,04026.4204,N,08654.6855,W,006.800,10944
$GPRMC,190828,A,04026.4221,N,08654.6855,W,006.623,10962
$GPRMC,190829,A,04026.4238,N,08654.6846,W,006.623,10980
$GPRMC,190830,A,04026.4255,N,08654.6846,W,006.623,10998
$GPRMC,190831,A,04026.4272,N,08654.6846,W,006.478,11016
$GPRMC,190832,A,04026.4290,N,08654.6846,W,006.478,11034
$GPRMC,190833,A,04026.4309,N,08654.6836,W,006.452,11052
$GPRMC,190834,A,04026.4321,N,08654.6836,W,006.401,11070
$GPRMC,190835,A,04026.4341,N,08654.6826,W,005.792,11088
$GPRMC,190845,A,04026.4561,N,08654.6602,W,006.993,11106
$GPRMC,190846,A,04026.4573,N,08654.6572,W,007.057,11124
$GPRMC,190847,A,04026.4595,N,08654.6533,W,007.856,11142
$GPRMC,190848,A,04026.4614,N,08654.6523,W,008.030,11160
$GPRMC,190849,A,04026.4641,N,08654.6514,W,008.485,11178
$GPRMC,190850,A,04026.4648,N,08654.6416,W,009.028,11196
$GPRMC,190851,A,04026.4658,N,08654.6387,W,007.524,11214
$GPRMC,190852,A,04026.4673,N,08654.6377,W,007.310,11232
$GPRMC,190853,A,04026.4688,N,08654.6357,W,007.310,11250
$GPRMC,190854,A,04026.4702,N,08654.6338,W,007.310,11268
$GPRMC,190855,A,04026.4736,N,08654.6387,W,006.725,11286
$GPRMC,190856,A,04026.4753,N,08654.6396,W,006.347,11304
$GPRMC,190857,A,04026.4795,N,08654.6768,W,004.937,11322
$GPRMC,190858,A,04026.4849,N,08654.6758,W,007.721,11340
$GPRMC,190859,A,04026.4868,N,08654.6748,W,007.641,11358
$GPRMC,190900,A,04026.4897,N,08654.6758,W,009.760,11376
$GPRMC,190901,A,04026.4929,N,08654.6768,W,010.797,11394
$GPRMC,190902,A,04026.4958,N,08654.6768,W,011.444,11412
$GPRMC,190903,A,04026.4990,N,08654.6777,W,011.444,11430
$GPRMC,190904,A,04026.5012,N,08654.6768,W,010.790,11448
$GPRMC,190905,A,04026.5044,N,08654.6777,W,013.814,11466
$GPRMC,190906,A,04026.5076,N,08654.6807,W,014.296,11484
$GPRMC,190907,A,04026.5112,N,08654.6836,W,014.441,11502
$GPRMC,190908,A,04026.5149,N,08654.6855,W,014.605,11520
$GPRMC,190909,A,04026.5183,N,08654.6885,W,014.689,11538
$GPRMC,190910,A,04026.5225,N,08654.6914,W,015.609,11556
$GPRMC,190911,A,04026.5222,N,08654.7002,W,015.388,11574
$GPRMC,190912,A,04026.5229,N,08654.7080,W,015.675,11592
$GPRMC,190913,A,04026.5256,N,08654.7119,W,015.743,11610
$GPRMC,190914,A,04026.5283,N,08654.7168,W,015.743,11628
$GPRMC,190915,A,04026.5308,N,08654.7217,W,015.743,11646
$GPRMC,190916,A,04026.5337,N,08654.7246,W,014.936,11664
$GPRMC,190917,A,04026.5364,N,08654.7285,W,014.836,11682
$GPRMC,190918,A,04026.5391,N,08654.7334,W,014.798,11700
$GPRMC,190919,A,04026.5417,N,08654.7373,W,014.826,11718
$GPRMC,190920,A,04026.5444,N,08654.7412,W,014.780,11736
$GPRMC,190921,A,04026.5474,N,08654.7451,W,014.780,11754
$GPRMC,190922,A,04026.5498,N,08654.7490,W,014.636,11772
$GPRMC,190923,A,04026.5522,N,08654.7529,W,014.636,11790
$GPRMC,190924,A,04026.5552,N,08654.7568,W,014.636,11808
$GPRMC,190925,A,04026.5596,N,08654.7617,W,015.735,11826
$GPRMC,190926,A,04026.5615,N,08654.7725,W,016.298,11844
$GPRMC,190927,A,04026.5647,N,08654.7764,W,016.152,11862
$GPRMC,190928,A,04026.5659,N,08654.7822,W,015.575,11880
$GPRMC,190929,A,04026.5693,N,08654.7832,W,014.692,11898
$GPRMC,190930,A,04026.5723,N,08654.7871,W,014.548,11916
$GPRMC,190931,A,04026.5752,N,08654.7930,W,014.627,11934
$GPRMC,190932,A,04026.5779,N,08654.7969,W,014.317,11952
$GPRMC,190933,A,04026.5811,N,08654.7998,W,014.289,11970
$GPRMC,190934,A,04026.5837,N,08654.8027,W,014.161,11988
$GPRMC,190935,A,04026.5869,N,08654.8066,W,014.191,12006
$GPRMC,190936,A,04026.5896,N,08654.8096,W,014.140,12024
$GPRMC,190937,A,04026.5925,N,08654.8135,W,013.991,12042
$GPRMC,190938,A,04026.5957,N,08654.8164,W,014.003,12060
$GPRMC,190939,A,04026.5986,N,08654.8203,W,013.917,12078
$GPRMC,190940,A,04026.6013,N,08654.8232,W,013.918,12096
$GPRMC,190941,A,04026.6035,N,08654.8262,W,013.256,12114
$GPRMC,190942,A,04026.6060,N,08654.8291,W,013.019,12132
$GPRMC,190943,A,04026.6086,N,08654.8330,W,012.894,12150
$GPRMC,190944,A,04026.6121,N,08654.8271,W,010.973,12168
$GPRMC,190945,A,04026.6145,N,08654.8281,W,010.665,12186
$GPRMC,190946,A,04026.6174,N,08654.8291,W,010.754,12204
$GPRMC,190947,A,04026.6204,N,08654.8311,W,010.853,12222
$GPRMC,190948,A,04026.6226,N,08654.8350,W,010.869,12240
$GPRMC,190949,A,04026.6255,N,08654.8369,W,010.751,12258
$GPRMC,190950,A,04026.6282,N,08654.8379,W,010.568,12276
$GPRMC,190951,A,04026.6306,N,08654.8398,W,010.579,12294
$GPRMC,190952,A,04026.6333,N,08654.8418,W,010.671,12312
$GPRMC,190953,A,04026.6362,N,08654.8438,W,010.719,12330
$GPRMC,190954,A,04026.6387,N,08654.8447,W,010.769,12348
$GPRMC,190955,A,04026.6416,N,08654.8467,W,010.769,12366
$GPRMC,190956,A,04026.6440,N,08654.8486,W,010.769,12384
$GPRMC,190957,A,04026.6470,N,08654.8506,W,010.769,12402
$GPRMC,190958,A,04026.6499,N,08654.8545,W,011.258,12420
$GPRMC,190959,A,04026.6531,N,08654.8545,W,011.015,12438
$GPRMC,191000,A,04026.6548,N,08654.8545,W,010.041,12456
$GPRMC,191001,A,04026.6577,N,08654.8555,W,010.034,12474
$GPRMC,191002,A,04026.6602,N,08654.8574,W,010.342,12492
$GPRMC,191003,A,04026.6626,N,08654.8584,W,010.021,12510
$GPRMC,191004,A,04026.6658,N,08654.8604,W,010.278,12528
$GPRMC,191005,A,04026.6687,N,08654.8613,W,010.287,12546
$GPRMC,191006,A,04026.6714,N,08654.8623,W,010.178,12564
$GPRMC,191007,A,04026.6736,N,08654.8633,W,009.797,12582
$GPRMC,191008,A,04026.6768,N,08654.8652,W,009.989,12600
$GPRMC,191009,A,04026.6792,N,08654.8662,W,009.548,12618
$GPRMC,191010,A,04026.6816,N,08654.8672,W,009.683,12636
$GPRMC,191011,A,04026.6841,N,08654.8682,W,009.242,12654
$GPRMC,191012,A,04026.6868,N,08654.8691,W,009.350,12672
$GPRMC,191013,A,04026.6890,N,08654.8711,W,009.427,12690
$GPRMC,191014,A,04026.6914,N,08654.8721,W,009.319,12708
$GPRMC,191015,A,04026.6943,N,08654.8730,W,009.157,12726
$GPRMC,191016,A,04026.6968,N,08654.8740,W,009.314,12744
$GPRMC,191017,A,04026.6990,N,08654.8750,W,008.613,12762
$GPRMC,191018,A,04026.7014,N,08654.8760,W,009.000,12780
$GPRMC,191019,A,04026.7039,N,08654.8770,W,009.146,12798
$GPRMC,191020,A,04026.7061,N,08654.8779,W,009.148,12816
$GPRMC,191021,A,04026.7087,N,08654.8799,W,009.168,12834
$GPRMC,191022,A,04026.7109,N,08654.8809,W,009.130,12852
$GPRMC,191023,A,04026.7134,N,08654.8809,W,009.072,12870
$GPRMC,191024,A,04026.7161,N,08654.8818,W,009.118,12888
$GPRMC,191025,A,04026.7183,N,08654.8828,W,008.985,12906
$GPRMC,191026,A,04026.7200,N,08654.8818,W,007.325,12924
$GPRMC,191027,A,04026.7217,N,08654.8838,W,007.110,12942
$GPRMC,191028,A,04026.7236,N,08654.8848,W,006.845,12960
$GPRMC,191029,A,04026.7251,N,08654.8848,W,006.084,12978
$GPRMC,191030,A,04026.7271,N,08654.8867,W,006.484,12996
$GPRMC,191031,A,04026.7288,N,08654.8877,W,007.446,13014
$GPRMC,191032,A,04026.7314,N,08654.8877,W,008.595,13032
$GPRMC,191033,A,04026.7344,N,08654.8896,W,010.337,13050
$GPRMC,191034,A,04026.7375,N,08654.8896,W,011.309,13068
$GPRMC,191035,A,04026.7405,N,08654.8906,W,011.998,13086
$GPRMC,191036,A,04026.7439,N,08654.8916,W,013.151,13104
$GPRMC,191037,A,04026.7476,N,08654.8926,W,014.028,13122
$GPRMC,191038,A,04026.7517,N,08654.8936,W,014.511,13140
$GPRMC,191039,A,04026.7556,N,08654.8955,W,014.805,13158
$GPRMC,191040,A,04026.7598,N,08654.8965,W,015.302,13176
$GPRMC,191041,A,04026.7642,N,08654.8984,W,015.847,13194
$GPRMC,191042,A,04026.7683,N,08654.8994,W,016.486,13212
$GPRMC,191043,A,04026.7729,N,08654.9014,W,016.425,13230
$GPRMC,191044,A,04026.7771,N,08654.9033,W,016.641,13248
$GPRMC,191045,A,04026.7817,N,08654.9043,W,016.763,13266
$GPRMC,191046,A,04026.7864,N,08654.9072,W,016.901,13284
$GPRMC,191047,A,04026.7905,N,08654.9092,W,016.748,13302
$GPRMC,191048,A,04026.7947,N,08654.9111,W,016.503,13320
$GPRMC,191049,A,04026.7988,N,08654.9141,W,016.243,13338
$GPRMC,191050,A,04026.8030,N,08654.9170,W,016.201,13356
$GPRMC,191051,A,04026.8071,N,08654.9189,W,016.211,13374
$GPRMC,191052,A,04026.8113,N,08654.9229,W,016.187,13392
$GPRMC,191053,A,04026.8145,N,08654.9209,W,015.282,13410
$GPRMC,191054,A,04026.8181,N,08654.9238,W,015.168,13428
$GPRMC,191055,A,04026.8218,N,08654.9268,W,014.854,13446
$GPRMC,191056,A,04026.8254,N,08654.9297,W,015.080,13464
$GPRMC,191057,A,04026.8286,N,08654.9326,W,014.441,13482
$GPRMC,191058,A,04026.8323,N,08654.9365,W,015.274,13500
$GPRMC,191059,A,04026.8354,N,08654.9395,W,014.965,13518
$GPRMC,191100,A,04026.8386,N,08654.9434,W,015.169,13536
$GPRMC,191101,A,04026.8416,N,08654.9473,W,015.350,13554
$GPRMC,191102,A,04026.8452,N,08654.9512,W,015.350,13572
$GPRMC,191103,A,04026.8486,N,08654.9551,W,015.983,13590
$GPRMC,191104,A,04026.8518,N,08654.9590,W,015.694,13608
$GPRMC,191105,A,04026.8560,N,08654.9619,W,016.347,13626
$GPRMC,191106,A,04026.8596,N,08654.9648,W,016.360,13644
$GPRMC,191107,A,04026.8635,N,08654.9678,W,016.578,13662
$GPRMC,191108,A,04026.8677,N,08654.9707,W,016.613,13680
$GPRMC,191109,A,04026.8721,N,08654.9736,W,017.144,13698
$GPRMC,191110,A,04026.8765,N,08654.9756,W,017.144,13716
$GPRMC,191111,A,04026.8809,N,08654.9785,W,017.144,13734
$GPRMC,191112,A,04026.8848,N,08654.9824,W,017.144,13752
$GPRMC,191113,A,04026.8892,N,08654.9844,W,017.144,13770
$GPRMC,191114,A,04026.8933,N,08654.9873,W,017.144,13788
$GPRMC,191115,A,04026.8977,N,08654.9893,W,017.050,13806
$GPRMC,191116,A,04026.9014,N,08654.9893,W,016.162,13824
$GPRMC,191117,A,04026.9077,N,08654.9893,W,016.132,13842
$GPRMC,191118,A,04026.9116,N,08654.9902,W,015.601,13860
$GPRMC,191119,A,04026.9153,N,08654.9863,W,014.965,13878
$GPRMC,191120,A,04026.9192,N,08654.9844,W,015.062,13896
$GPRMC,191121,A,04026.9233,N,08654.9844,W,014.859,13914
$GPRMC,191122,A,04026.9275,N,08654.9844,W,014.805,13932
$GPRMC,191123,A,04026.9314,N,08654.9844,W,014.481,13950
$GPRMC,191124,A,04026.9355,N,08654.9844,W,014.199,13968
$GPRMC,191125,A,04026.9395,N,08654.9844,W,014.254,13986
$GPRMC,191126,A,04026.9434,N,08654.9844,W,014.400,14004
$GPRMC,191127,A,04026.9475,N,08654.9844,W,014.787,14022
$GPRMC,191128,A,04026.9514,N,08654.9854,W,014.487,14040
$GPRMC,191129,A,04026.9556,N,08654.9854,W,014.629,14058
$GPRMC,191130,A,04026.9597,N,08654.9854,W,014.629,14076
$GPRMC,191131,A,04026.9636,N,08654.9854,W,014.629,14094
$GPRMC,191132,A,04026.9678,N,08654.9854,W,014.649,14112
$GPRMC,191133,A,04026.9719,N,08654.9863,W,014.649,14130
$GPRMC,191134,A,04026.9758,N,08654.9863,W,014.348,14148
$GPRMC,191135,A,04026.9795,N,08654.9863,W,014.309,14166
$GPRMC,191136,A,04026.9834,N,08654.9883,W,014.317,14184
$GPRMC,191137,A,04026.9875,N,08654.9873,W,014.399,14202
$GPRMC,191138,A,04026.9915,N,08654.9873,W,014.260,14220
$GPRMC,191139,A,04026.9954,N,08654.9873,W,014.125,14238
$GPRMC,191140,A,04026.9993,N,08654.9873,W,014.057,14256
$GPRMC,191141,A,04027.0029,N,08654.9873,W,013.580,14274
$GPRMC,191142,A,04027.0066,N,08654.9873,W,013.662,14292
$GPRMC,191143,A,04027.0105,N,08654.9873,W,013.624,14310
$GPRMC,191144,A,04027.0144,N,08654.9873,W,013.788,14328
$GPRMC,191145,A,04027.0181,N,08654.9873,W,013.706,14346
$GPRMC,191146,A,04027.0220,N,08654.9873,W,013.741,14364
$GPRMC,191147,A,04027.0256,N,08654.9873,W,013.741,14382
$GPRMC,191148,A,04027.0295,N,08654.9834,W,013.814,14400
$GPRMC,191149,A,04027.0337,N,08654.9834,W,014.000,14418
$GPRMC,191150,A,04027.0378,N,08654.9824,W,013.873,14436
$GPRMC,191151,A,04027.0417,N,08654.9824,W,013.988,14454
$GPRMC,191152,A,04027.0449,N,08654.9824,W,013.119,14472
$GPRMC,191153,A,04027.0481,N,08654.9824,W,013.104,14490
$GPRMC,191154,A,04027.0527,N,08654.9824,W,013.723,14508
$GPRMC,191155,A,04027.0566,N,08654.9814,W,013.684,14526
$GPRMC,191156,A,04027.0603,N,08654.9814,W,013.823,14544
$GPRMC,191157,A,04027.0642,N,08654.9814,W,013.960,14562
$GPRMC,191158,A,04027.0684,N,08654.9814,W,014.041,14580
$GPRMC,191159,A,04027.0723,N,08654.9814,W,014.154,14598
$GPRMC,191200,A,04027.0759,N,08654.9805,W,014.154,14616
$GPRMC,191201,A,04027.0798,N,08654.9805,W,014.082,14634
$GPRMC,191202,A,04027.0837,N,08654.9805,W,014.082,14652
$GPRMC,191203,A,04027.0859,N,08654.9824,W,011.717,14670
$GPRMC,191204,A,04027.0886,N,08654.9824,W,011.268,14688
$GPRMC,191205,A,04027.0911,N,08654.9824,W,010.076,14706
$GPRMC,191206,A,04027.0940,N,08654.9824,W,009.830,14724
$GPRMC,191207,A,04027.0950,N,08654.9824,W,007.878,14742
$GPRMC,191208,A,04027.0969,N,08654.9805,W,007.626,14760
$GPRMC,191209,A,04027.0989,N,08654.9805,W,007.153,14778
$GPRMC,191210,A,04027.1011,N,08654.9805,W,007.153,14796
$GPRMC,191211,A,04027.0994,N,08654.9717,W,007.867,14814
$GPRMC,191212,A,04027.0996,N,08654.9678,W,009.263,14832
$GPRMC,191213,A,04027.0999,N,08654.9629,W,010.505,14850
$GPRMC,191214,A,04027.0940,N,08654.9619,W,009.622,14868
$GPRMC,191215,A,04027.0933,N,08654.9580,W,010.332,14886
$GPRMC,191216,A,04027.0933,N,08654.9541,W,011.014,14904
$GPRMC,191217,A,04027.0920,N,08654.9502,W,011.070,14922
$GPRMC,191218,A,04027.0908,N,08654.9463,W,012.162,14940
$GPRMC,191219,A,04027.0898,N,08654.9414,W,012.881,14958
$GPRMC,191220,A,04027.0884,N,08654.9365,W,013.110,14976
$GPRMC,191221,A,04027.0869,N,08654.9326,W,013.272,14994
$GPRMC,191222,A,04027.0852,N,08654.9277,W,013.291,15012
$GPRMC,191223,A,04027.0837,N,08654.9238,W,013.291,15030
$GPRMC,191224,A,04027.0823,N,08654.9189,W,013.274,15048
$GPRMC,191225,A,04027.0806,N,08654.9150,W,013.321,15066
$GPRMC,191226,A,04027.0793,N,08654.9102,W,013.247,15084
$GPRMC,191227,A,04027.0776,N,08654.9063,W,013.131,15102
$GPRMC,191228,A,04027.0776,N,08654.9014,W,012.741,15120
$GPRMC,191229,A,04027.0762,N,08654.8975,W,012.539,15138
$GPRMC,191230,A,04027.0754,N,08654.8936,W,012.535,15156
$GPRMC,191231,A,04027.0740,N,08654.8896,W,011.400,15174
$GPRMC,191232,A,04027.0728,N,08654.8867,W,011.287,15192
$GPRMC,191233,A,04027.0720,N,08654.8818,W,011.259,15210
$GPRMC,191234,A,04027.0708,N,08654.8789,W,011.221,15228
$GPRMC,191235,A,04027.0701,N,08654.8740,W,010.950,15246
$GPRMC,191236,A,04027.0686,N,08654.8711,W,010.989,15264
$GPRMC,191237,A,04027.0679,N,08654.8672,W,010.974,15282
$GPRMC,191238,A,04027.0667,N,08654.8633,W,010.993,15300
$GPRMC,191239,A,04027.0657,N,08654.8594,W,011.039,15318
$GPRMC,191240,A,04027.0647,N,08654.8555,W,011.052,15336
$GPRMC,191241,A,04027.0637,N,08654.8516,W,011.052,15354
$GPRMC,191242,A,04027.0625,N,08654.8486,W,010.980,15372
$GPRMC,191243,A,04027.0615,N,08654.8447,W,010.980,15390
$GPRMC,191244,A,04027.0601,N,08654.8398,W,011.618,15408
$GPRMC,191245,A,04027.0588,N,08654.8359,W,011.618,15426
$GPRMC,191251,A,04027.0718,N,08654.7979,W,013.218,15444
$GPRMC,191252,A,04027.0720,N,08654.7930,W,013.296,15462
$GPRMC,191253,A,04027.0718,N,08654.7871,W,013.343,15480
$GPRMC,191254,A,04027.0715,N,08654.7822,W,013.377,15498
$GPRMC,191255,A,04027.0713,N,08654.7783,W,013.430,15516
$GPRMC,191256,A,04027.0713,N,08654.7725,W,013.461,15534
$GPRMC,191257,A,04027.0710,N,08654.7676,W,013.476,15552
$GPRMC,191258,A,04027.0710,N,08654.7637,W,013.440,15570
$GPRMC,191259,A,04027.0708,N,08654.7578,W,013.434,15588
$GPRMC,191300,A,04027.0706,N,08654.7529,W,013.460,15606
$GPRMC,191301,A,04027.0706,N,08654.7480,W,013.470,15624
$GPRMC,191302,A,04027.0706,N,08654.7432,W,013.445,15642
$GPRMC,191303,A,04027.0706,N,08654.7383,W,013.434,15660
$GPRMC,191304,A,04027.0703,N,08654.7334,W,012.219,15678
$GPRMC,191348,A,04027.0627,N,08654.5771,W,009.738,15696
$GPRMC,191349,A,04027.0630,N,08654.5732,W,010.378,15714
$GPRMC,191350,A,04027.0627,N,08654.5693,W,011.001,15732
$GPRMC,191351,A,04027.0627,N,08654.5654,W,010.943,15750
$GPRMC,191352,A,04027.0627,N,08654.5605,W,011.136,15768
$GPRMC,191353,A,04027.0627,N,08654.5566,W,010.894,15786
$GPRMC,191354,A,04027.0627,N,08654.5527,W,011.001,15804
$GPRMC,191355,A,04027.0627,N,08654.5488,W,010.987,15822
$GPRMC,191356,A,04027.0627,N,08654.5449,W,011.179,15840
$GPRMC,191357,A,04027.0625,N,08654.5410,W,011.173,15858
$GPRMC,191358,A,04027.0625,N,08654.5361,W,011.330,15876
$GPRMC,191359,A,04027.0625,N,08654.5322,W,011.421,15894
$GPRMC,191400,A,04027.0625,N,08654.5283,W,011.482,15912
$GPRMC,191401,A,04027.0625,N,08654.5244,W,011.504,15930
$GPRMC,191402,A,04027.0625,N,08654.5195,W,011.466,15948
$GPRMC,191403,A,04027.0583,N,08654.5186,W,010.869,15966
$GPRMC,191404,A,04027.0491,N,08654.5010,W,022.890,15984
$GPRMC,191405,A,04027.0491,N,08654.4941,W,018.227,16002
$GPRMC,191406,A,04027.0496,N,08654.4883,W,016.774,16020
$GPRMC,191407,A,04027.0488,N,08654.4844,W,014.829,16038
$GPRMC,191408,A,04027.0476,N,08654.4795,W,013.627,16056
$GPRMC,191409,A,04027.0469,N,08654.4746,W,013.408,16074
$GPRMC,191410,A,04027.0461,N,08654.4707,W,013.166,16092
$GPRMC,191411,A,04027.0466,N,08654.4658,W,012.752,16110
$GPRMC,191412,A,04027.0449,N,08654.4619,W,013.501,16128
$GPRMC,191413,A,04027.0427,N,08654.4561,W,014.040,16146
$GPRMC,191414,A,04027.0425,N,08654.4502,W,014.273,16164
$GPRMC,191415,A,04027.0405,N,08654.4453,W,014.479,16182
$GPRMC,191416,A,04027.0393,N,08654.4404,W,014.479,16200
$GPRMC,191417,A,04027.0398,N,08654.4346,W,014.020,16218
$GPRMC,191418,A,04027.0393,N,08654.4307,W,013.965,16236
$GPRMC,191419,A,04027.0386,N,08654.4258,W,013.965,16254
$GPRMC,191420,A,04027.0371,N,08654.4336,W,011.457,16272
$GPRMC,191421,A,04027.0354,N,08654.4297,W,012.527,16290
$GPRMC,191422,A,04027.0337,N,08654.4258,W,012.902,16308
$GPRMC,191423,A,04027.0327,N,08654.4209,W,013.093,16326
$GPRMC,191424,A,04027.0320,N,08654.4160,W,013.228,16344
$GPRMC,191425,A,04027.0310,N,08654.4111,W,013.120,16362
$GPRMC,191426,A,04027.0308,N,08654.4063,W,013.161,16380
$GPRMC,191427,A,04027.0295,N,08654.4014,W,013.161,16398
$GPRMC,191428,A,04027.0286,N,08654.3965,W,013.161,16416
$GPRMC,191429,A,04027.0281,N,08654.3916,W,013.244,16434
$GPRMC,191430,A,04027.0271,N,08654.3877,W,013.244,16452
$GPRMC,191431,A,04027.0266,N,08654.3828,W,013.206,16470
$GPRMC,191432,A,04027.0247,N,08654.3779,W,013.186,16488
$GPRMC,191433,A,04027.0237,N,08654.3730,W,013.186,16506
$GPRMC,191434,A,04027.0227,N,08654.3682,W,013.186,16524
$GPRMC,191435,A,04027.0215,N,08654.3643,W,013.186,16542
$GPRMC,191436,A,04027.0205,N,08654.3594,W,013.132,16560
$GPRMC,191437,A,04027.0193,N,08654.3545,W,013.132,16578
$GPRMC,191438,A,04027.0181,N,08654.3506,W,013.132,16596
$GPRMC,191439,A,04027.0173,N,08654.3447,W,013.021,16614
$GPRMC,191440,A,04027.0146,N,08654.3438,W,012.589,16632
$GPRMC,191441,A,04027.0134,N,08654.3389,W,012.306,16650
$GPRMC,191442,A,04027.0149,N,08654.3330,W,012.063,16668
$GPRMC,191443,A,04027.0139,N,08654.3291,W,012.136,16686
$GPRMC,191444,A,04027.0127,N,08654.3242,W,012.140,16704
$GPRMC,191445,A,04027.0112,N,08654.3213,W,012.289,16722
$GPRMC,191446,A,04027.0100,N,08654.3164,W,012.289,16740
$GPRMC,191447,A,04027.0085,N,08654.3125,W,012.408,16758
$GPRMC,191448,A,04027.0073,N,08654.3086,W,012.408,16776
$GPRMC,191449,A,04027.0056,N,08654.3037,W,012.514,16794
$GPRMC,191450,A,04027.0037,N,08654.2998,W,013.198,16812
$GPRMC,191451,A,04027.0017,N,08654.2949,W,013.367,16830
$GPRMC,191452,A,04026.9995,N,08654.2900,W,013.767,16848
$GPRMC,191453,A,04026.9973,N,08654.2861,W,013.862,16866
$GPRMC,191454,A,04026.9949,N,08654.2813,W,014.282,16884
$GPRMC,191455,A,04026.9963,N,08654.2520,W,016.774,16902
$GPRMC,191456,A,04026.9946,N,08654.2471,W,016.860,16920
$GPRMC,191457,A,04026.9924,N,08654.2412,W,016.943,16938
$GPRMC,191458,A,04026.9905,N,08654.2354,W,016.907,16956
$GPRMC,191459,A,04026.9880,N,08654.2295,W,017.614,16974
$GPRMC,191500,A,04026.9854,N,08654.2236,W,017.614,16992
$GPRMC,191501,A,04026.9824,N,08654.2178,W,017.924,17010
$GPRMC,191502,A,04026.9795,N,08654.2119,W,018.434,17028
$GPRMC,191503,A,04026.9768,N,08654.2070,W,018.546,17046
$GPRMC,191504,A,04026.9744,N,08654.2002,W,018.545,17064
$GPRMC,191505,A,04026.9688,N,08654.2148,W,013.604,17082
$GPRMC,191506,A,04026.9656,N,08654.2119,W,013.619,17100
$GPRMC,191507,A,04026.9619,N,08654.2080,W,013.933,17118
$GPRMC,191508,A,04026.9587,N,08654.2051,W,014.012,17136
$GPRMC,191509,A,04026.9558,N,08654.2021,W,013.752,17154
$GPRMC,191510,A,04026.9529,N,08654.1992,W,013.382,17172
$GPRMC,191511,A,04026.9500,N,08654.1963,W,013.249,17190
$GPRMC,191512,A,04026.9473,N,08654.1934,W,013.190,17208
$GPRMC,191513,A,04026.9441,N,08654.1914,W,013.233,17226
$GPRMC,191514,A,04026.9414,N,08654.1875,W,012.903,17244
$GPRMC,191515,A,04026.9392,N,08654.1846,W,012.110,17262
$GPRMC,191516,A,04026.9368,N,08654.1826,W,011.819,17280
$GPRMC,191517,A,04026.9341,N,08654.1797,W,012.599,17298
$GPRMC,191518,A,04026.9224,N,08654.2354,W,012.262,17316
$GPRMC,191519,A,04026.9189,N,08654.2354,W,012.268,17334
$GPRMC,191520,A,04026.9155,N,08654.2344,W,012.276,17352
$GPRMC,191521,A,04026.9114,N,08654.2363,W,013.058,17370
$GPRMC,191522,A,04026.9077,N,08654.2354,W,013.536,17388
$GPRMC,191523,A,04026.9041,N,08654.2354,W,013.321,17406
$GPRMC,191524,A,04026.9004,N,08654.2344,W,013.321,17424
$GPRMC,191525,A,04026.8967,N,08654.2344,W,013.483,17442
$GPRMC,191526,A,04026.8928,N,08654.2314,W,014.097,17460
$GPRMC,191527,A,04026.8889,N,08654.2305,W,013.936,17478
$GPRMC,191528,A,04026.8853,N,08654.2295,W,013.785,17496
$GPRMC,191529,A,04026.8816,N,08654.2285,W,013.446,17514
$GPRMC,191530,A,04026.8782,N,08654.2285,W,013.233,17532
$GPRMC,191531,A,04026.8745,N,08654.2285,W,013.074,17550
$GPRMC,191532,A,04026.8708,N,08654.2285,W,013.036,17568
$GPRMC,191533,A,04026.8672,N,08654.2285,W,013.036,17586
$GPRMC,191554,A,04026.9858,N,08654.0908,W,011.157,17604
$GPRMC,191555,A,04026.9878,N,08654.0889,W,010.504,17622
$GPRMC,191556,A,04026.9895,N,08654.0859,W,010.504,17640
$GPRMC,191557,A,04026.9858,N,08654.0752,W,013.842,17658
$GPRMC,191558,A,04026.9851,N,08654.0576,W,015.231,17676
$GPRMC,191559,A,04026.9834,N,08654.0527,W,015.732,17694
$GPRMC,191600,A,04026.9812,N,08654.0469,W,016.344,17712
$GPRMC,191601,A,04026.9785,N,08654.0469,W,013.260,17730
$GPRMC,191602,A,04026.9758,N,08654.0439,W,012.639,17748
$GPRMC,191603,A,04026.9731,N,08654.0410,W,012.527,17766
$GPRMC,191604,A,04026.9705,N,08654.0381,W,012.766,17784
$GPRMC,191605,A,04026.9675,N,08654.0352,W,012.833,17802
$GPRMC,191606,A,04026.9648,N,08654.0313,W,013.028,17820
$GPRMC,191607,A,04026.9619,N,08654.0293,W,013.231,17838
$GPRMC,191608,A,04026.9587,N,08654.0254,W,013.429,17856
$GPRMC,191609,A,04026.9558,N,08654.0234,W,013.496,17874
$GPRMC,191610,A,04026.9529,N,08654.0195,W,013.771,17892
$GPRMC,191611,A,04026.9497,N,08654.0166,W,013.854,17910
$GPRMC,191612,A,04026.9468,N,08654.0137,W,014.055,17928
$GPRMC,191613,A,04026.9436,N,08654.0098,W,014.130,17946
$GPRMC,191614,A,04026.9404,N,08654.0078,W,013.965,17964
$GPRMC,191615,A,04026.9373,N,08654.0039,W,014.061,17982
$GPRMC,191616,A,04026.9341,N,08654.0000,W,013.987,18000
$GPRMC,191617,A,04026.9309,N,08653.9971,W,014.383,18018
$GPRMC,191618,A,04026.9277,N,08653.9941,W,014.523,18036
$GPRMC,191619,A,04026.9241,N,08653.9912,W,014.647,18054
$GPRMC,191620,A,04026.9209,N,08653.9883,W,014.520,18072
$GPRMC,191621,A,04026.9177,N,08653.9854,W,014.555,18090
$GPRMC,191622,A,04026.9141,N,08653.9814,W,014.650,18108
$GPRMC,191623,A,04026.9109,N,08653.9775,W,014.373,18126
$GPRMC,191624,A,04026.9075,N,08653.9756,W,014.634,18144
$GPRMC,191625,A,04026.9038,N,08653.9727,W,014.880,18162
$GPRMC,191626,A,04026.9001,N,08653.9697,W,014.803,18180
$GPRMC,191627,A,04026.8965,N,08653.9678,W,014.184,18198
$GPRMC,191628,A,04026.8926,N,08653.9658,W,014.595,18216
$GPRMC,191629,A,04026.8887,N,08653.9639,W,014.579,18234
$GPRMC,191630,A,04026.8850,N,08653.9619,W,014.707,18252
$GPRMC,191631,A,04026.8809,N,08653.9600,W,015.372,18270
$GPRMC,191632,A,04026.8770,N,08653.9580,W,015.332,18288
$GPRMC,191633,A,04026.8730,N,08653.9561,W,015.158,18306
$GPRMC,191634,A,04026.8689,N,08653.9531,W,015.136,18324
$GPRMC,191635,A,04026.8650,N,08653.9512,W,015.092,18342
$GPRMC,191636,A,04026.8611,N,08653.9492,W,015.270,18360
$GPRMC,191637,A,04026.8572,N,08653.9473,W,015.358,18378
$GPRMC,191638,A,04026.8533,N,08653.9453,W,015.197,18396
$GPRMC,191639,A,04026.8494,N,08653.9434,W,015.082,18414
$GPRMC,191640,A,04026.8455,N,08653.9414,W,014.949,18432
$GPRMC,191641,A,04026.8416,N,08653.9395,W,014.844,18450
$GPRMC,191642,A,04026.8364,N,08653.9453,W,014.918,18468
$GPRMC,191643,A,04026.8323,N,08653.9443,W,014.801,18486
$GPRMC,191644,A,04026.8284,N,08653.9434,W,014.788,18504
$GPRMC,191645,A,04026.8242,N,08653.9424,W,014.808,18522
$GPRMC,191646,A,04026.8203,N,08653.9414,W,014.835,18540
$GPRMC,191647,A,04026.8159,N,08653.9424,W,015.134,18558
$GPRMC,191648,A,04026.8120,N,08653.9414,W,014.856,18576
$GPRMC,191649,A,04026.8079,N,08653.9414,W,014.949,18594
$GPRMC,191650,A,04026.8035,N,08653.9414,W,015.246,18612
$GPRMC,191651,A,04026.7991,N,08653.9414,W,014.962,18630
$GPRMC,191652,A,04026.7949,N,08653.9414,W,015.019,18648
$GPRMC,191653,A,04026.7908,N,08653.9404,W,015.018,18666
$GPRMC,191654,A,04026.7866,N,08653.9395,W,014.976,18684
$GPRMC,191655,A,04026.7827,N,08653.9395,W,014.884,18702
$GPRMC,191656,A,04026.7786,N,08653.9385,W,014.800,18720
$GPRMC,191657,A,04026.7744,N,08653.9385,W,014.953,18738
$GPRMC,191658,A,04026.7705,N,08653.9385,W,014.711,18756
$GPRMC,191659,A,04026.7664,N,08653.9385,W,014.748,18774
$GPRMC,191700,A,04026.7617,N,08653.9385,W,015.272,18792
$GPRMC,191701,A,04026.7573,N,08653.9395,W,015.155,18810
$GPRMC,191702,A,04026.7534,N,08653.9395,W,015.200,18828
$GPRMC,191703,A,04026.7493,N,08653.9395,W,015.193,18846
$GPRMC,191704,A,04026.7451,N,08653.9395,W,015.193,18864
$GPRMC,191705,A,04026.7415,N,08653.9404,W,014.957,18882
$GPRMC,191706,A,04026.7371,N,08653.9404,W,015.062,18900
$GPRMC,191707,A,04026.7314,N,08653.9404,W,015.961,18918
$GPRMC,191708,A,04026.7278,N,08653.9375,W,015.484,18936
$GPRMC,191709,A,04026.7234,N,08653.9375,W,015.484,18954
$GPRMC,191710,A,04026.7183,N,08653.9395,W,015.797,18972
$GPRMC,191711,A,04026.7141,N,08653.9414,W,015.717,18990
$GPRMC,191712,A,04026.7097,N,08653.9414,W,015.681,19008
$GPRMC,191713,A,04026.7056,N,08653.9414,W,015.681,19026
$GPRMC,191714,A,04026.7021,N,08653.9424,W,014.619,19044
$GPRMC,191715,A,04026.6982,N,08653.9434,W,014.592,19062
$GPRMC,191716,A,04026.6931,N,08653.9443,W,015.129,19080
$GPRMC,191717,A,04026.6890,N,08653.9443,W,015.123,19098
$GPRMC,191718,A,04026.6851,N,08653.9453,W,015.311,19116
$GPRMC,191719,A,04026.6809,N,08653.9453,W,015.311,19134
